{"id":"9011001008000000-80X","line":"80X","description":"","trip_ids":["14010000648288425","14010000648287424","14010000668731341","14010000705214253","14010000705214266","14010000705216330","14010000705216342","14010000705216354","14010000705214280","14010000705214294","14010000705214307","14010000705214320","14010000705216318","14010000711418876","14010000711418983","14010000711418891","14010000711418906","14010000711418999","14010000711462723","14010000711462738","14010000711418921","14010000711418952","14010000711418968","14010000711462693","14010000711462753","14010000711418936","14010000711462708"],"path":[[59.33206,18.076519],[59.331946,18.076593],[59.326261,18.090425],[59.318383,18.097087],[59.318447,18.119504],[59.319491,18.13477],[59.319714,18.144514],[59.320887,18.15138],[59.320915,18.151398],[59.320913,18.151415],[59.318367,18.160029],[59.318368,18.160055],[59.318134,18.160025],[59.318729,18.15877],[59.325511,18.159676],[59.328266,18.159449],[59.330754,18.158645],[59.33302,18.156785],[59.335341,18.155552],[59.343102,18.152476],[59.343186,18.152407],[59.345561,18.131458],[59.345499,18.131638],[59.347948,18.1343],[59.357964,18.109369],[59.358306,18.106294],[59.358321,18.106337]],"stops":[{"id":"9022050012930001","name":"Nybroplan","lat":59.33206,"lng":18.076519},{"id":"9022050012007001","name":"Blockhusudden","lat":59.320915,"lng":18.151398},{"id":"9022050012376001","name":"Nacka strand","lat":59.318368,"lng":18.160055},{"id":"9022050012003001","name":"Lidingö/Dalénum","lat":59.343186,"lng":18.152407},{"id":"9022050012099001","name":"Frihamnen","lat":59.345561,"lng":18.131458},{"id":"9022050013123001","name":"Ropsten","lat":59.358321,"lng":18.106337}]}